[
  {
    "containerId": "container-001",
    "name": "Centar Main Square",
    "address": "Ploshtad Makedonija, Skopje 1000",
    "wasteType": "general",
    "capacityLiters": 1100,
    "fillLevel": 0,
    "batteryLevel": 100,
    "status": "active",
    "lastPickup": null,
    "location": { "lat": 41.994578, "lng": 21.430864 }
  },
  {
    "containerId": "container-002",
    "name": "Partizanski Odredi Blvd",
    "address": "Blvd. Partizanski Odredi 22, Skopje 1000",
    "wasteType": "recycling",
    "capacityLiters": 800,
    "fillLevel": 0,
    "batteryLevel": 100,
    "status": "active",
    "lastPickup": null,
    "location": { "lat": 41.999482, "lng": 21.420035 }
  },
  {
    "containerId": "container-003",
    "name": "Karposh Market",
    "address": "Ul. Makedonija 14, Karposh, Skopje 1000",
    "wasteType": "organic",
    "capacityLiters": 600,
    "fillLevel": 0,
    "batteryLevel": 100,
    "status": "active",
    "lastPickup": null,
    "location": { "lat": 42.004819, "lng": 21.390514 }
  },
  {
    "containerId": "container-004",
    "name": "Aerodrom Park",
    "address": "Ul. 3ta Makedonska Brigada, Aerodrom, Skopje 1000",
    "wasteType": "general",
    "capacityLiters": 1100,
    "fillLevel": 0,
    "batteryLevel": 100,
    "status": "active",
    "lastPickup": null,
    "location": { "lat": 41.988234, "lng": 21.440778 }
  },
  {
    "containerId": "container-005",
    "name": "Chair Klinika",
    "address": "Ul. Krste Misirkov 5, Chair, Skopje 1000",
    "wasteType": "recycling",
    "capacityLiters": 800,
    "fillLevel": 0,
    "batteryLevel": 100,
    "status": "active",
    "lastPickup": null,
    "location": { "lat": 41.999421, "lng": 21.438156 }
  },
  {
    "containerId": "container-006",
    "name": "Panorama Hotel",
    "address": "Salvador Aljende",
    "wasteType": "general",
    "capacityLiters": 1100,
    "fillLevel": 0,
    "batteryLevel": 100,
    "status": "active",
    "lastPickup": null,
    "location": { "lat": 41.984259, "lng": 21.418844 }
  },
  {
    "containerId": "container-007",
    "name": "City Mall Loading Bay",
    "address": "Bul. Partizanski Odredi, Karposh, Skopje 1000",
    "wasteType": "hazardous",
    "capacityLiters": 400,
    "fillLevel": 0,
    "batteryLevel": 100,
    "status": "active",
    "lastPickup": null,
    "location": { "lat": 42.003791, "lng": 21.391373 }
  },
  {
    "containerId": "container-008",
    "name": "Train Station Plaza",
    "address": "Bul. Kuzman Josifovski Pitu 1, Skopje 1000",
    "wasteType": "general",
    "capacityLiters": 1100,
    "fillLevel": 0,
    "batteryLevel": 100,
    "status": "active",
    "lastPickup": null,
    "location": { "lat": 41.991396, "lng": 21.445583 }
  },
  {
    "containerId": "container-009",
    "name": "Old Bazaar North",
    "address": "Ul. Samoilova 15, Stara Charshija, Skopje 1000",
    "wasteType": "organic",
    "capacityLiters": 600,
    "fillLevel": 0,
    "batteryLevel": 100,
    "status": "active",
    "lastPickup": null,
    "location": { "lat": 41.999053, "lng": 21.436271 }
  },
  {
    "containerId": "container-010",
    "name": "Taftalidze Park",
    "address": "Ul. Taftalidze 33, Skopje 1000",
    "wasteType": "recycling",
    "capacityLiters": 800,
    "fillLevel": 0,
    "batteryLevel": 100,
    "status": "active",
    "lastPickup": null,
    "location": { "lat": 41.999202, "lng": 21.409450 }
  },
  {
    "containerId": "container-011",
    "name": "Lisiche Estate",
    "address": "Ul. Vidoe Smilevski Bato 12, Lisiche, Skopje 1000",
    "wasteType": "general",
    "capacityLiters": 1100,
    "fillLevel": 0,
    "batteryLevel": 100,
    "status": "active",
    "lastPickup": null,
    "location": { "lat": 41.980877, "lng": 21.475443 }
  },
  {
    "containerId": "container-012",
    "name": "Vlada na RM",
    "address": "Bul. Ilinden 2, Centar, Skopje 1000",
    "wasteType": "general",
    "capacityLiters": 1100,
    "fillLevel": 0,
    "batteryLevel": 100,
    "status": "active",
    "lastPickup": null,
    "location": { "lat": 42.000115, "lng": 21.427934 }
  },
  {
    "containerId": "container-013",
    "name": "Gorche Petrov Station",
    "address": "Ul. Jane Sandanski 55, Gjorche Petrov, Skopje 1000",
    "wasteType": "recycling",
    "capacityLiters": 800,
    "fillLevel": 0,
    "batteryLevel": 100,
    "status": "active",
    "lastPickup": null,
    "location": { "lat": 42.006234, "lng": 21.351229 }
  },
  {
    "containerId": "container-014",
    "name": "UKIM Campus",
    "address": "Bul. Goce Delchev 9A, Skopje 1000",
    "wasteType": "general",
    "capacityLiters": 1500,
    "fillLevel": 0,
    "batteryLevel": 100,
    "status": "active",
    "lastPickup": null,
    "location": { "lat": 41.998723, "lng": 21.442583 }
  },
  {
    "containerId": "container-015",
    "name": "OU 26 July",
    "address": "Indira Gandi, Shuto Orizari, Skopje 1000",
    "wasteType": "hazardous",
    "capacityLiters": 400,
    "fillLevel": 0,
    "batteryLevel": 100,
    "status": "active",
    "lastPickup": null,
    "location": { "lat": 42.035007, "lng": 21.426497 }
  },
  {
    "containerId": "container-016",
    "name": "Queen's Hotel",
    "address": "Vasil Gorkov, Kapishtec, Skopje 1000",
    "wasteType": "general",
    "capacityLiters": 1100,
    "fillLevel": 0,
    "batteryLevel": 100,
    "status": "active",
    "lastPickup": null,
    "location": { "lat": 41.992667, "lng": 21.418550 }
  },
  {
    "containerId": "container-017",
    "name": "Tomi Market",
    "address": "Ul. Dimo Hadzidimov 3, Kisela Voda, Skopje 1000",
    "wasteType": "organic",
    "capacityLiters": 600,
    "fillLevel": 0,
    "batteryLevel": 100,
    "status": "active",
    "lastPickup": null,
    "location": { "lat": 41.976118, "lng": 21.438292 }
  },
  {
    "containerId": "container-018",
    "name": "Majchin Dom",
    "address": "Ul. Vasko Karangeleski, Aerodrom, Skopje 1000",
    "wasteType": "general",
    "capacityLiters": 800,
    "fillLevel": 0,
    "batteryLevel": 100,
    "status": "active",
    "lastPickup": null,
    "location": { "lat": 41.988772, "lng": 21.462852 }
  },
  {
    "containerId": "container-019",
    "name": "OOU Stiv Naumov",
    "address": "Ul. Lazar Pop Trajkov, Avtokomanda, Skopje 1000",
    "wasteType": "general",
    "capacityLiters": 1100,
    "fillLevel": 0,
    "batteryLevel": 100,
    "status": "active",
    "lastPickup": null,
    "location": { "lat": 42.003993, "lng": 21.464687 }
  },
  {
    "containerId": "container-020",
    "name": "Mr. Bricolage",
    "address": "Bul. Kiro Gligorov, Avtokomanda, Skopje 1000",
    "wasteType": "recycling",
    "capacityLiters": 800,
    "fillLevel": 0,
    "batteryLevel": 100,
    "status": "active",
    "lastPickup": null,
    "location": { "lat": 41.996188, "lng": 21.476130 }
  }
]
